[
  {
    "lat": "43.6776334",
    "lng": "-79.3527656",
    "id": 209172,
    "name": "The Big Carrot",
    "phone": "416-466-2129",
    "web": "https:\/\/thebigcarrot.ca\/",
    "webdisplay": "thebigcarrot.ca\/",
    "store_image": "\/\/cdn.shopify.com\/s\/files\/1\/1762\/2215\/t\/3\/assets\/scasl_149297498120160621c4014photoen717842_compact.jpg",
    "marker_image": "\/\/cdn.shopify.com\/s\/files\/1\/1762\/2215\/t\/3\/assets\/scasl_1492974981bio-raw-logo-final-1_compact.jpg",
    "address": "348 Danforth Ave",
    "country": "Canada",
    "state": "ON",
    "city": "Toronto",
    "postal": "M4K 1N8"
  },
  {
    "lat": "43.6629445",
    "lng": "-79.3325818",
    "id": 209173,
    "name": "Raise The Root Organic Market",
    "phone": "416-466-7668",
    "web": "https:\/\/www.facebook.com\/RaiseTheRootOrganicMarket\/",
    "webdisplay": "www.facebook.com\/RaiseTheRootOrganicMarket\/",
    "store_image": "\/\/cdn.shopify.com\/s\/files\/1\/1762\/2215\/t\/3\/assets\/scasl_1492975032ls_compact.jpg",
    "marker_image": "\/\/cdn.shopify.com\/s\/files\/1\/1762\/2215\/t\/3\/assets\/scasl_1492974921bio-raw-logo-final-1_compact.jpg",
    "address": "1164 Queen Street East",
    "country": "Canada",
    "state": "ON",
    "city": "Toronto",
    "postal": "M4M 1L4"
  },
  {
    "lat": "43.8522841",
    "lng": "-79.52135720000001",
    "id": 267085,
    "name": "Nature's Emporium - Maple ",
    "phone": "(905) 553-5527",
    "web": "https:\/\/www.naturesemporium.com",
    "webdisplay": "NaturesEmporium.com",
    "store_image": "\/\/cdn.shopify.com\/s\/files\/1\/1762\/2215\/t\/10\/assets\/scasl_1497878258naturesemporiumnosunstackedtagline-fixed-gothic_compact.jpg",
    "marker_image": "\/\/cdn.shopify.com\/s\/files\/1\/1762\/2215\/t\/10\/assets\/scasl_1497878259bioraw-logo_jpg_compact.jpeg",
    "address": "2535 Major MacKenzie Dr W",
    "country": "Canada",
    "state": "ON",
    "city": "Maple ",
    "postal": "L6A 1C6"
  },
  {
    "lat": "43.38764130000001",
    "lng": "-79.794356",
    "id": 267086,
    "name": "Nature's Emporium - Burlington ",
    "phone": "(289) 427-5075",
    "web": "https:\/\/www.naturesemporium.com\/",
    "webdisplay": "NaturesEmporium.com",
    "store_image": "\/\/cdn.shopify.com\/s\/files\/1\/1762\/2215\/t\/10\/assets\/scasl_1497878440naturesemporiumnosunstackedtagline-fixed-gothic_compact.jpg",
    "marker_image": "\/\/cdn.shopify.com\/s\/files\/1\/1762\/2215\/t\/10\/assets\/scasl_1497878440bioraw-logo_jpg_compact.jpeg",
    "address": "2180 Itabashi Way",
    "country": "Canada",
    "state": "ON",
    "city": "Burlington ",
    "postal": " L7M 5A5"
  },
  {
    "lat": "44.0353076",
    "lng": "-79.47342259999999",
    "id": 267087,
    "name": "Nature's Emporium - Newmarket ",
    "phone": "(905) 898-1844",
    "web": "https:\/\/www.naturesemporium.com\/",
    "webdisplay": "NaturesEmporium.com",
    "store_image": "\/\/cdn.shopify.com\/s\/files\/1\/1762\/2215\/t\/10\/assets\/scasl_1497878625naturesemporiumnosunstackedtagline-fixed-gothic_compact.jpg",
    "marker_image": "\/\/cdn.shopify.com\/s\/files\/1\/1762\/2215\/t\/10\/assets\/scasl_1497878625bioraw-logo_jpg_compact.jpeg",
    "address": "16655 Yonge St",
    "country": "Canada",
    "state": "ON",
    "city": "New Market",
    "postal": "L3X 1V6"
  },
  {
    "lat": "43.8033266",
    "lng": "-79.4164566",
    "id": 267091,
    "name": "Ambrosia - Thornhill",
    "phone": "(905) 881-7811",
    "web": "http:\/\/www.ambrosia.ca\/",
    "webdisplay": "Ambrosia.ca",
    "store_image": "\/\/cdn.shopify.com\/s\/files\/1\/1762\/2215\/t\/10\/assets\/scasl_1497879635imgres_compact.jpg",
    "marker_image": "\/\/cdn.shopify.com\/s\/files\/1\/1762\/2215\/t\/10\/assets\/scasl_1497879636bioraw-logo_jpg_compact.jpeg",
    "address": "55 Doncaster Ave",
    "country": "Canada",
    "state": "ON",
    "city": "Thornhill",
    "postal": " L3T 1L7"
  },
  {
    "lat": "43.7034427",
    "lng": "-79.41536789999998",
    "id": 267098,
    "name": "Shoppers Drug Mart - Eglinton and Chaplin ",
    "phone": " (416) 485-3093",
    "web": "https:\/\/www1.shoppersdrugmart.ca\/",
    "webdisplay": "ShoppersDrugmart.ca\/",
    "store_image": "\/\/cdn.shopify.com\/s\/files\/1\/1762\/2215\/t\/10\/assets\/scasl_1497881580dbiashopperslogoe5a034da5004aabad20d17b0_compact.jpeg",
    "marker_image": "\/\/cdn.shopify.com\/s\/files\/1\/1762\/2215\/t\/10\/assets\/scasl_1497881581bioraw-logo_jpg_compact.jpeg",
    "address": "550 Eglinton Ave W",
    "country": "Canada",
    "state": "ON",
    "city": "Toronto",
    "postal": " M5N 1B6"
  },
  {
    "lat": "43.6679897",
    "lng": "-79.46458689999997",
    "id": 267099,
    "name": "Organic Garage - Junction ",
    "web": "http:\/\/www.organicgarage.com\/",
    "webdisplay": "OrganicGarage.com",
    "store_image": "\/\/cdn.shopify.com\/s\/files\/1\/1762\/2215\/t\/10\/assets\/scasl_1497881870cnshh3el400x400_compact.jpg",
    "marker_image": "\/\/cdn.shopify.com\/s\/files\/1\/1762\/2215\/t\/10\/assets\/scasl_1497881870bioraw-logo_jpg_compact.jpeg",
    "address": " 43 Junction Road",
    "country": "Canada",
    "state": "ON",
    "city": "Toronto",
    "postal": "M6N 1B5"
  },
  {
    "lat": "43.8161131",
    "lng": "-79.45304139999996",
    "id": 267100,
    "name": "Organic Garage - Thornhill",
    "phone": "(905) 889 3539",
    "web": "http:\/\/www.organicgarage.com\/",
    "webdisplay": "OrganicGarage.com\/",
    "store_image": "\/\/cdn.shopify.com\/s\/files\/1\/1762\/2215\/t\/10\/assets\/scasl_1497882134cnshh3el400x400_compact.jpg",
    "marker_image": "\/\/cdn.shopify.com\/s\/files\/1\/1762\/2215\/t\/10\/assets\/scasl_1497882134bioraw-logo_jpg_compact.jpeg",
    "address": " 8020 Bathurst Street",
    "country": "Canada",
    "state": "ON",
    "city": "Thornhill",
    "postal": "L4J 0B8"
  },
  {
    "lat": "43.4482485",
    "lng": "-79.68891860000002",
    "id": 267101,
    "name": "Organic Garage - Oakville ",
    "phone": "(905) 849 1648",
    "web": "http:\/\/www.organicgarage.com\/",
    "webdisplay": "OrganicGarage.com",
    "store_image": "\/\/cdn.shopify.com\/s\/files\/1\/1762\/2215\/t\/10\/assets\/scasl_1497882320cnshh3el400x400_compact.jpg",
    "marker_image": "\/\/cdn.shopify.com\/s\/files\/1\/1762\/2215\/t\/10\/assets\/scasl_1497882320bioraw-logo_jpg_compact.jpeg",
    "address": " 579 Kerr Street",
    "country": "Canada",
    "state": "ON",
    "city": "Oakville",
    "postal": "L6K 3E1"
  },
  {
    "lat": "43.645556",
    "lng": "-79.39470979999999",
    "id": 395955,
    "name": "Fresh and Wild - King & Spadina",
    "phone": "416 979-8155",
    "web": "http:\/\/www.freshandwild.ca",
    "webdisplay": "FreshandWild.ca",
    "store_image": "\/\/cdn.shopify.com\/s\/files\/1\/1762\/2215\/t\/10\/assets\/scasl_1503713170logo-6_compact.png",
    "marker_image": "\/\/cdn.shopify.com\/s\/files\/1\/1762\/2215\/t\/10\/assets\/scasl_1503713170scasl1497880044bioraw-logojpgcompact_compact.jpeg",
    "address": "69 Spadina Ave",
    "country": "Canada",
    "state": "ON",
    "city": "Toronto",
    "postal": "M5V 1K1"
  },
  {
    "lat": "43.66956709999999",
    "lng": "-79.3885937",
    "id": 422203,
    "name": "Bloor Street Market",
    "phone": "(416) 923-8831",
    "web": "http:\/\/www.bloorstreetmarket.ca",
    "webdisplay": "www.bloorstreetmarket.ca",
    "store_image": "\/\/cdn.shopify.com\/s\/files\/1\/1762\/2215\/t\/10\/assets\/scasl_1504745388logobloorstreetmarketmeden_compact.gif",
    "marker_image": "\/\/cdn.shopify.com\/s\/files\/1\/1762\/2215\/t\/10\/assets\/scasl_1504745389scasl1503713170scasl1497880044bioraw-logojpgcompactcompact_compact.jpeg",
    "address": "55 Bloor St West",
    "country": "Canada",
    "city": "Toronto",
    "postal": "M4W 1A5"
  },
  {
    "lat": "43.7909142",
    "lng": "-79.54437289999998",
    "id": 440493,
    "name": "Ambrosia - Vaughan",
    "phone": "+1 (905) 264-2510",
    "email": "vaughan@ambrosia.ca",
    "web": "http:\/\/www.ambrosia.ca\/stores\/",
    "webdisplay": "www.ambrosia.ca",
    "store_image": "\/\/cdn.shopify.com\/s\/files\/1\/1762\/2215\/t\/10\/assets\/scasl_1506479058scasl1497879635imgrescompact_compact.jpg",
    "marker_image": "\/\/cdn.shopify.com\/s\/files\/1\/1762\/2215\/t\/10\/assets\/scasl_1506479058scasl1497879636bioraw-logojpgcompact_compact.jpeg",
    "address": "57 Northview Blvd",
    "country": "Canada",
    "state": "ON",
    "city": "Vaughn",
    "postal": " L4L 8X9"
  },
  {
    "lat": "43.640528",
    "lng": "-79.39437909999998",
    "id": 628779,
    "name": "Sobeys Urban Fresh - Fort York + Spadina",
    "phone": "(416) 623-5111",
    "web": "https:\/\/www.sobeys.com\/en\/stores\/sobeys-spadina\/",
    "webdisplay": "www.Sobeys.com",
    "store_image": "\/\/cdn.shopify.com\/s\/files\/1\/1762\/2215\/t\/10\/assets\/scasl_1513305597scasl1507424756logo-sobeyscompact_compact.png",
    "marker_image": "\/\/cdn.shopify.com\/s\/files\/1\/1762\/2215\/t\/10\/assets\/scasl_1513305597bio-raw-logo-final-1_compact.jpg",
    "address": "22 Fort York Boulevard",
    "country": "Canada",
    "state": "ON",
    "city": "Toronto",
    "postal": "M5V 3Z2"
  },
  {
    "lat": "43.6604859",
    "lng": "-79.38445590000003",
    "id": 665580,
    "name": "Sobeys Urban Fresh - Bay Street",
    "phone": "(416) 506-1626",
    "web": "https:\/\/www.sobeys.com\/en\/stores\/sobeys-bay-street\/",
    "webdisplay": "www.Sobeys.com",
    "store_image": "\/\/cdn.shopify.com\/s\/files\/1\/1762\/2215\/t\/10\/assets\/scasl_1516116484sobeys_compact.png",
    "marker_image": "\/\/cdn.shopify.com\/s\/files\/1\/1762\/2215\/t\/10\/assets\/scasl_1516116484bioraw_compact.jpg",
    "address": "777 Bay Street",
    "country": "Canada",
    "state": "ON",
    "city": "Toronto",
    "postal": "M5G 2C8"
  },
  {
    "lat": "43.6709778",
    "lng": "-79.42757369999998",
    "id": 665581,
    "name": "Sobeys - Dupont",
    "phone": "(416) 534-3588",
    "web": "https:\/\/www.sobeys.com\/en\/stores\/sobeys-dupont\/",
    "webdisplay": "www.Sobeys.com",
    "store_image": "\/\/cdn.shopify.com\/s\/files\/1\/1762\/2215\/t\/10\/assets\/scasl_1516116610sobeys_compact.png",
    "marker_image": "\/\/cdn.shopify.com\/s\/files\/1\/1762\/2215\/t\/10\/assets\/scasl_1516116611bioraw_compact.jpg",
    "address": "840 Dupont Street",
    "country": "Canada",
    "state": "ON",
    "city": "Toronto",
    "postal": "M6G 1Z8"
  },
  {
    "lat": "43.6451935",
    "lng": "-79.44850659999997",
    "id": 665582,
    "name": "Sobeys Urban Fresh - High Park",
    "phone": "(416) 588-3363",
    "web": "https:\/\/www.sobeys.com\/en\/stores\/sobeys-high-park-express\/",
    "webdisplay": "www.Sobeys.com",
    "store_image": "\/\/cdn.shopify.com\/s\/files\/1\/1762\/2215\/t\/10\/assets\/scasl_1516117231sobeys_compact.png",
    "marker_image": "\/\/cdn.shopify.com\/s\/files\/1\/1762\/2215\/t\/10\/assets\/scasl_1516117232bioraw_compact.jpg",
    "address": "199 Roncesvalles Avenue",
    "country": "Canada",
    "state": "ON",
    "city": "Toronto",
    "postal": "M6R 2L5"
  },
  {
    "lat": "43.6884794",
    "lng": "-79.39076949999998",
    "id": 665584,
    "name": "Sobeys Urban Fresh - St. Clair",
    "phone": "(416) 413-0594",
    "web": "https:\/\/www.sobeys.com\/en\/stores\/sobeys-st-clair-urban-fresh\/",
    "webdisplay": "www.Sobeys.com",
    "store_image": "\/\/cdn.shopify.com\/s\/files\/1\/1762\/2215\/t\/10\/assets\/scasl_1516117713sobeys_compact.png",
    "marker_image": "\/\/cdn.shopify.com\/s\/files\/1\/1762\/2215\/t\/10\/assets\/scasl_1516117713bioraw_compact.jpg",
    "address": "81 St. Clair Avenue East",
    "country": "Canada",
    "state": "ON",
    "city": "Toronto",
    "postal": "M4T 1M7"
  },
  {
    "lat": "43.6979099",
    "lng": "-79.39553610000002",
    "id": 665585,
    "name": "Sobeys Urban Fresh - Yonge and Balliol",
    "phone": "(416) 485-1022",
    "web": "https:\/\/www.sobeys.com\/en\/stores\/sobeys-balliol\/",
    "webdisplay": "www.Sobeys.com",
    "store_image": "\/\/cdn.shopify.com\/s\/files\/1\/1762\/2215\/t\/10\/assets\/scasl_1516118126sobeys_compact.png",
    "marker_image": "\/\/cdn.shopify.com\/s\/files\/1\/1762\/2215\/t\/10\/assets\/scasl_1516118126bioraw_compact.jpg",
    "address": "22 Balliol Street",
    "country": "Canada",
    "state": "ON",
    "city": "Toronto",
    "postal": "M4S 1C1"
  },
  {
    "lat": "43.684723",
    "lng": "-79.35646099999997",
    "id": 704964,
    "name": "Sobeys - Todmorden",
    "phone": "416-421-5906",
    "web": "https:\/\/www.sobeys.com\/en\/stores\/sobeys-todmorden\/",
    "webdisplay": "www.Sobeys.com",
    "store_image": "\/\/cdn.shopify.com\/s\/files\/1\/1762\/2215\/t\/10\/assets\/scasl_1517427205scasl1516116610sobeyscompact_compact.png",
    "marker_image": "\/\/cdn.shopify.com\/s\/files\/1\/1762\/2215\/t\/10\/assets\/scasl_1517427206bioraw_compact.jpg",
    "address": "1015 Broadview Avenue",
    "country": "Canada",
    "state": "ON",
    "city": "Toronto",
    "postal": "M4K 2S2"
  },
  {
    "lat": "43.6298831",
    "lng": "-79.5186276",
    "id": 1148005,
    "name": "Healthy Planet - Etobicoke",
    "phone": "(416) 259-5197",
    "web": "https:\/\/www.healthyplanetcanada.com\/",
    "webdisplay": "www.healthyplanetcanada.com",
    "store_image": "\/\/cdn.shopify.com\/s\/files\/1\/1762\/2215\/t\/29\/assets\/scasl_15319294500x0_compact.png",
    "marker_image": "\/\/cdn.shopify.com\/s\/files\/1\/1762\/2215\/t\/29\/assets\/scasl_1531929451bio_compact.jpg",
    "address": "1000 Islington Ave #3",
    "country": "Canada",
    "state": "ON",
    "city": "Etobicoke",
    "postal": "M8Z 4P8"
  },
  {
    "lat": "43.7008729",
    "lng": "-79.42724040000002",
    "id": 1148012,
    "name": "Nortown Foods - Eglinton",
    "phone": "(416) 789-2921",
    "web": "http:\/\/www.nortownfoods.com\/",
    "webdisplay": "www.nortownfoods.com",
    "store_image": "\/\/cdn.shopify.com\/s\/files\/1\/1762\/2215\/t\/29\/assets\/scasl_1531930174logo-text_compact.png",
    "marker_image": "\/\/cdn.shopify.com\/s\/files\/1\/1762\/2215\/t\/29\/assets\/scasl_1531930175bio_compact.jpg",
    "address": "892 Eglinton Avenue West",
    "country": "Canada",
    "state": "ON",
    "city": "Toronto",
    "postal": "M6C 2B6"
  },
  {
    "lat": "43.646693",
    "lng": "-79.39021000000002",
    "id": 1148019,
    "name": "O&B Canteen",
    "web": "https:\/\/www.obcanteen.com\/menus\/",
    "webdisplay": "www.obcanteen.com",
    "store_image": "\/\/cdn.shopify.com\/s\/files\/1\/1762\/2215\/t\/29\/assets\/scasl_1531930631canteen-restaurant-logo-header_compact.jpg",
    "marker_image": "\/\/cdn.shopify.com\/s\/files\/1\/1762\/2215\/t\/29\/assets\/scasl_1531930631bio_compact.jpg",
    "address": "330 King St West",
    "country": "Canada",
    "state": "ON",
    "city": "Toronto",
    "postal": "M5V 3X2"
  },
  {
    "lat": "43.6787318",
    "lng": "-79.29772320000001",
    "id": 1148048,
    "name": "The Big Carrot - Beaches",
    "web": "https:\/\/thebigcarrot.ca\/",
    "webdisplay": "www.thebigcarrot.ca",
    "store_image": "\/\/cdn.shopify.com\/s\/files\/1\/1762\/2215\/t\/29\/assets\/scasl_1568656024the-big-carrot-_compact.jpg",
    "marker_image": "\/\/cdn.shopify.com\/s\/files\/1\/1762\/2215\/t\/29\/assets\/scasl_1531932182bio_compact.jpg",
    "address": "125 Southwood Dr",
    "country": "Canada",
    "state": "ON",
    "city": "Toronto",
    "postal": "M4E 1P5"
  },
  {
    "lat": "43.3667792",
    "lng": "-79.82249569999999",
    "id": 1450631,
    "name": "Fortino's - Upper Middle - Burlington",
    "phone": "(905) 336-6566",
    "web": "https:\/\/www.fortinos.ca\/store-locator\/?storeId=0087&utm_source=G&utm_medium=LPM&utm_campaign=Loblaws",
    "webdisplay": "www.fortinos.ca",
    "store_image": "\/\/cdn.shopify.com\/s\/files\/1\/1762\/2215\/t\/29\/assets\/scasl_1538166591fortinos_compact.png",
    "marker_image": "\/\/cdn.shopify.com\/s\/files\/1\/1762\/2215\/t\/29\/assets\/scasl_1538166592bio-raw-logo-final-1_compact.jpg",
    "address": "2025 Guelph Line",
    "country": "Canada",
    "state": "ON",
    "city": "Burlington",
    "postal": "L7P 4M8"
  },
  {
    "lat": "43.46719119999999",
    "lng": "-79.74536649999999",
    "id": 1450632,
    "name": "Fortino's - Neyagawa - Oakville",
    "phone": "(905) 257-3540",
    "web": "https:\/\/www.fortinos.ca\/store-locator\/?storeId=0095&utm_source=G&utm_medium=LPM&utm_campaign=Loblaws",
    "webdisplay": "www.fortinos.ca\/store-locator\/?storeId=0095&utm_source=G&utm_medium=LPM&utm_campaign=Loblaws",
    "store_image": "\/\/cdn.shopify.com\/s\/files\/1\/1762\/2215\/t\/29\/assets\/scasl_1538166837fortinos_compact.png",
    "marker_image": "\/\/cdn.shopify.com\/s\/files\/1\/1762\/2215\/t\/29\/assets\/scasl_1538166838bio-raw-logo-final-1_compact.jpg",
    "address": "493 Dundas St W",
    "country": "Canada",
    "state": "ON",
    "city": "Oakville",
    "postal": "L6M 4M2"
  },
  {
    "lat": "43.6389917",
    "lng": "-79.42003349999999",
    "id": 1667161,
    "name": "Organic Garage Liberty Village",
    "phone": "(647) 426-0011",
    "web": "https:\/\/www.organicgarage.com\/",
    "webdisplay": "www.organicgarage.com\/",
    "store_image": "\/\/cdn.shopify.com\/s\/files\/1\/1762\/2215\/t\/29\/assets\/scasl_1543708757cnshh3el400x400_compact.jpg",
    "marker_image": "\/\/cdn.shopify.com\/s\/files\/1\/1762\/2215\/t\/29\/assets\/scasl_1543708758bio-raw-logo-final-1_compact.jpg",
    "address": "42 Hanna Ave",
    "country": "Canada",
    "state": "ON",
    "city": "Toronto",
    "postal": "M6K 1X1"
  },
  {
    "lat": "43.725347",
    "lng": "-79.40245709999999",
    "id": 1667162,
    "name": "George's Independent City Market",
    "phone": "(416) 483-6996",
    "web": "https:\/\/www.independentcitymarket.ca\/store-locator?show-store-list=true&type=transit&type=neighbourhood&type=sdm",
    "webdisplay": "www.independentcitymarket.ca",
    "store_image": "\/\/cdn.shopify.com\/s\/files\/1\/1762\/2215\/t\/29\/assets\/scasl_1543708955citymarketlogo_compact.png",
    "marker_image": "\/\/cdn.shopify.com\/s\/files\/1\/1762\/2215\/t\/29\/assets\/scasl_1543708956bio-raw-logo-final-1_compact.jpg",
    "address": "3080 Yonge St",
    "country": "Canada",
    "state": "ON",
    "city": "Toronto",
    "postal": "M4N 3N1"
  },
  {
    "lat": "43.6687237",
    "lng": "-79.42075620000003",
    "id": 1667165,
    "name": "Fiesta Farms",
    "phone": "(416) 537-1235",
    "web": "http:\/\/fiestafarms.ca\/",
    "webdisplay": "http:\/\/fiestafarms.ca\/",
    "store_image": "\/\/cdn.shopify.com\/s\/files\/1\/1762\/2215\/t\/29\/assets\/scasl_154370934898996-1493742709_compact.jpg",
    "marker_image": "\/\/cdn.shopify.com\/s\/files\/1\/1762\/2215\/t\/29\/assets\/scasl_1543709349bio-raw-logo-final-1_compact.jpg",
    "address": "200 Christie St",
    "country": "Canada",
    "state": "ON",
    "city": "Toronto",
    "postal": " M6G 3B6"
  },
  {
    "lat": "43.8072167",
    "lng": "-79.5502937",
    "id": 1667166,
    "name": "Nature's Emporium Woodbridge",
    "phone": "365-527-2466",
    "web": "https:\/\/www.naturesemporium.com\/woodbridge\/",
    "webdisplay": "https:\/\/www.naturesemporium.com\/woodbridge\/",
    "store_image": "\/\/cdn.shopify.com\/s\/files\/1\/1762\/2215\/t\/29\/assets\/scasl_1543709603natures-emporium-neighbourhood-health-food-organic-natural-market_compact.png",
    "marker_image": "\/\/cdn.shopify.com\/s\/files\/1\/1762\/2215\/t\/29\/assets\/scasl_1543709604bio-raw-logo-final_compact.jpg",
    "address": "8401 Weston Rd",
    "country": "Canada",
    "state": "ON",
    "city": "Woodbrige",
    "postal": "L4L 1A6"
  },
  {
    "lat": "43.7286882",
    "lng": "-79.41774909999998",
    "id": 2028898,
    "name": "Ambrosia - Avenue Road",
    "phone": " (647) 748-1725",
    "store_image": "\/\/cdn.shopify.com\/s\/files\/1\/1762\/2215\/t\/29\/assets\/scasl_1568656774ambrosia_compact.jpg",
    "marker_image": "\/\/cdn.shopify.com\/s\/files\/1\/1762\/2215\/t\/29\/assets\/scasl_1550862021bio-raw-logo-final_compact.jpg",
    "address": "1725 Avenue Rd",
    "country": "Canada",
    "state": "ON",
    "city": "Toronto",
    "postal": "M5M 3Y5"
  },
  {
    "lat": "44.2210832",
    "lng": "-79.4464352",
    "id": 2028943,
    "name": "Whole Family Health",
    "phone": " (905) 476-7117",
    "web": "http:\/\/www.wholefamilyhealthfood.com",
    "webdisplay": "www.wholefamilyhealthfood.com",
    "store_image": "\/\/cdn.shopify.com\/s\/files\/1\/1762\/2215\/t\/29\/assets\/scasl_1550867521198841765215954082320365574651595240895986n_compact.jpg",
    "marker_image": "\/\/cdn.shopify.com\/s\/files\/1\/1762\/2215\/t\/29\/assets\/scasl_1550867522bio-raw-logo-final_compact.jpg",
    "address": " 236 Dovedale Drive",
    "country": "Canada",
    "state": "ON",
    "city": "Keswick",
    "postal": "L4P 0H3"
  },
  {
    "lat": "43.6841477",
    "lng": "-79.4153394",
    "id": 2369527,
    "name": "Loblaws - St Clair",
    "phone": "(416) 651-5166",
    "store_image": "\/\/cdn.shopify.com\/s\/files\/1\/1762\/2215\/t\/29\/assets\/scasl_1555696107logo3_compact.jpg",
    "marker_image": "\/\/cdn.shopify.com\/s\/files\/1\/1762\/2215\/t\/29\/assets\/scasl_1555865966bio-raw-logo_compact.jpg",
    "address": "396 St Clair Ave W, Toronto, ON M5P 3N3",
    "country": "Canada",
    "city": "Toronto",
    "postal": "M5P 3N3"
  },
  {
    "lat": "43.643878",
    "lng": "-79.56016840000001",
    "id": 2370111,
    "name": "Loblaws - The East Mall",
    "phone": "(416) 695-8990",
    "store_image": "\/\/cdn.shopify.com\/s\/files\/1\/1762\/2215\/t\/29\/assets\/scasl_1555865941logo3_compact.jpg",
    "marker_image": "\/\/cdn.shopify.com\/s\/files\/1\/1762\/2215\/t\/29\/assets\/scasl_1555865941bio-raw-logo_compact.jpg",
    "address": "380 The East Mall, Etobicoke, ON M9B 6L5",
    "country": "Canada",
    "city": "Toronto",
    "postal": "M9B 6L5"
  },
  {
    "lat": "43.6445862",
    "lng": "-79.37004230000002",
    "id": 2370112,
    "name": "Loblaws - Jarvis",
    "phone": "(416) 304-0611",
    "store_image": "\/\/cdn.shopify.com\/s\/files\/1\/1762\/2215\/t\/29\/assets\/scasl_1555866134logo3_compact.jpg",
    "marker_image": "\/\/cdn.shopify.com\/s\/files\/1\/1762\/2215\/t\/29\/assets\/scasl_1555866135bio-raw-logo_compact.jpg",
    "address": "10 Lower Jarvis St, Toronto, ON M5E 1Z2",
    "country": "Canada",
    "city": "Toronto",
    "postal": "M5E 1Z2"
  },
  {
    "lat": "43.657841",
    "lng": "-79.32733530000002",
    "id": 2370113,
    "name": "Loblaws- Leslie",
    "phone": "(416) 469-2897",
    "store_image": "\/\/cdn.shopify.com\/s\/files\/1\/1762\/2215\/t\/29\/assets\/scasl_1555866246logo3_compact.jpg",
    "marker_image": "\/\/cdn.shopify.com\/s\/files\/1\/1762\/2215\/t\/29\/assets\/scasl_1555866247bio-raw-logo_compact.jpg",
    "address": "7 Leslie St, Toronto, ON M4M 3H9",
    "country": "Canada",
    "city": "Toronto",
    "postal": "M4M 3H9"
  },
  {
    "lat": "43.6473554",
    "lng": "-79.40169630000003",
    "id": 2370114,
    "name": "Loblaws - Queen St W",
    "phone": "(416) 703-3419",
    "store_image": "\/\/cdn.shopify.com\/s\/files\/1\/1762\/2215\/t\/29\/assets\/scasl_1555866497logo3_compact.jpg",
    "marker_image": "\/\/cdn.shopify.com\/s\/files\/1\/1762\/2215\/t\/29\/assets\/scasl_1555866498bio-raw-logo_compact.jpg",
    "address": "585 Queen St W, Toronto, ON M5V 2B7",
    "country": "Canada",
    "city": "Toronto",
    "postal": "M5V 2B7"
  },
  {
    "lat": "43.6621288",
    "lng": "-79.38014720000001",
    "id": 2370115,
    "name": "Loblaws - Carlton",
    "phone": "(416) 593-6154",
    "store_image": "\/\/cdn.shopify.com\/s\/files\/1\/1762\/2215\/t\/29\/assets\/scasl_1555866616logo3_compact.jpg",
    "marker_image": "\/\/cdn.shopify.com\/s\/files\/1\/1762\/2215\/t\/29\/assets\/scasl_1555866617bio-raw-logo_compact.jpg",
    "address": "60 Carlton St, Toronto, ON M5B 1J2",
    "country": "Canada",
    "city": "Toronto",
    "postal": "M5B 1J2"
  },
  {
    "lat": "43.7354355",
    "lng": "-79.40413949999999",
    "id": 2370116,
    "name": "Loblaws - North York",
    "phone": "(416) 481-7753",
    "store_image": "\/\/cdn.shopify.com\/s\/files\/1\/1762\/2215\/t\/29\/assets\/scasl_1555866745logo3_compact.jpg",
    "marker_image": "\/\/cdn.shopify.com\/s\/files\/1\/1762\/2215\/t\/29\/assets\/scasl_1555866745bio-raw-logo_compact.jpg",
    "address": "3501 Yonge St, North York, ON M4N 2N5",
    "country": "Canada",
    "state": "ON",
    "city": "Toronto",
    "postal": "M4N 2N5"
  },
  {
    "lat": "43.68850279999999",
    "lng": "-79.28823969999996",
    "id": 2370117,
    "name": "Loblaws - Musgrave ",
    "phone": "(416) 694-3838",
    "store_image": "\/\/cdn.shopify.com\/s\/files\/1\/1762\/2215\/t\/29\/assets\/scasl_1555866862logo3_compact.jpg",
    "marker_image": "\/\/cdn.shopify.com\/s\/files\/1\/1762\/2215\/t\/29\/assets\/scasl_1555866863bio-raw-logo_compact.jpg",
    "address": "50 Musgrave St, Toronto, ON M4E 3W2",
    "country": "Canada",
    "state": "ON",
    "city": "Toronto",
    "postal": "M4E 3W2"
  },
  {
    "lat": "43.6721783",
    "lng": "-79.42062909999999",
    "id": 2370118,
    "name": "Loblaws - Dupont",
    "phone": "(416) 588-3756",
    "store_image": "\/\/cdn.shopify.com\/s\/files\/1\/1762\/2215\/t\/29\/assets\/scasl_1555866980logo3_compact.jpg",
    "marker_image": "\/\/cdn.shopify.com\/s\/files\/1\/1762\/2215\/t\/29\/assets\/scasl_1555866981bio-raw-logo_compact.jpg",
    "address": "650 Dupont St, Toronto, ON M6G 4B1",
    "country": "Canada",
    "state": "ON",
    "city": "Toronto",
    "postal": "M6G 4B1"
  },
  {
    "lat": "43.70718859999999",
    "lng": "-79.39440159999998",
    "id": 2370119,
    "name": "Loblaws - Eglinton",
    "phone": "(416) 489-7653",
    "store_image": "\/\/cdn.shopify.com\/s\/files\/1\/1762\/2215\/t\/29\/assets\/scasl_1555867083logo3_compact.jpg",
    "marker_image": "\/\/cdn.shopify.com\/s\/files\/1\/1762\/2215\/t\/29\/assets\/scasl_1555867084bio-raw-logo_compact.jpg",
    "address": "101 Eglinton Ave E #1, Toronto, ON M4P 1H4",
    "country": "Canada",
    "city": "Toronto",
    "postal": " M4P 1H4"
  },
  {
    "lat": "43.255467",
    "lng": "-79.9285395",
    "id": 2583342,
    "name": "Fortinos Hamilton",
    "phone": "(905) 308-9045",
    "store_image": "\/\/cdn.shopify.com\/s\/files\/1\/1762\/2215\/t\/29\/assets\/scasl_1559757237fortinos_compact.png",
    "marker_image": "\/\/cdn.shopify.com\/s\/files\/1\/1762\/2215\/t\/29\/assets\/scasl_1559757239bio-raw_compact.png",
    "address": "1579 Main St W, ",
    "country": "Canada",
    "state": "ON",
    "city": "Hamilton",
    "postal": "L8S 1E6"
  },
  {
    "lat": "43.2208513",
    "lng": "-79.85939329999997",
    "id": 2583343,
    "name": "Fortinos Hamilton",
    "phone": "(905) 574-0810",
    "store_image": "\/\/cdn.shopify.com\/s\/files\/1\/1762\/2215\/t\/29\/assets\/scasl_1559757415fortinos_compact.png",
    "marker_image": "\/\/cdn.shopify.com\/s\/files\/1\/1762\/2215\/t\/29\/assets\/scasl_1559757416bio-raw_compact.png",
    "address": "65 Mall Road",
    "country": "Canada",
    "state": "ON",
    "city": "Hamilton",
    "postal": "L8V 5B5"
  },
  {
    "lat": "43.3687006",
    "lng": "-79.75353029999997",
    "id": 2583344,
    "name": "Fortinos Burlington",
    "phone": "(905) 631-7227",
    "store_image": "\/\/cdn.shopify.com\/s\/files\/1\/1762\/2215\/t\/29\/assets\/scasl_1559757585fortinos_compact.png",
    "marker_image": "\/\/cdn.shopify.com\/s\/files\/1\/1762\/2215\/t\/29\/assets\/scasl_1559757586download_compact.png",
    "address": "5111 New St, Burlington",
    "city": "Toronto",
    "postal": "L7L 1V2"
  },
  {
    "lat": "43.4070955",
    "lng": "-79.8043495",
    "id": 2583345,
    "name": "Fortinos Burlington",
    "phone": "(905) 319-1690",
    "store_image": "\/\/cdn.shopify.com\/s\/files\/1\/1762\/2215\/t\/29\/assets\/scasl_1559757783fortinos_compact.png",
    "marker_image": "\/\/cdn.shopify.com\/s\/files\/1\/1762\/2215\/t\/29\/assets\/scasl_1559757783download_compact.png",
    "address": "2515 Appleby Line",
    "country": "Canada",
    "state": "ON",
    "city": "Burlington",
    "postal": "L7R 0B6"
  },
  {
    "lat": "43.8065837",
    "lng": "-79.4726273",
    "id": 2583347,
    "name": "Concord Food Centre",
    "phone": "(905) 886-2180",
    "store_image": "\/\/cdn.shopify.com\/s\/files\/1\/1762\/2215\/t\/29\/assets\/scasl_1559758099sal_compact.jpeg",
    "marker_image": "\/\/cdn.shopify.com\/s\/files\/1\/1762\/2215\/t\/29\/assets\/scasl_1559758101download_compact.png",
    "address": "1438 Centre Street",
    "country": "Canada",
    "state": "ON",
    "city": "Thornhill",
    "postal": "L4J 3N1"
  },
  {
    "lat": "43.68642740000001",
    "lng": "-79.37535120000001",
    "id": 2596568,
    "name": "Summerhill Market ",
    "phone": "(416) 921-2714",
    "web": "https:\/\/www.summerhillmarket.com",
    "webdisplay": "www.summerhillmarket.com",
    "store_image": "\/\/cdn.shopify.com\/s\/files\/1\/1762\/2215\/t\/29\/assets\/scasl_1568655978summerhill-logo-02_compact.png",
    "marker_image": "\/\/cdn.shopify.com\/s\/files\/1\/1762\/2215\/t\/29\/assets\/scasl_1560190067download_compact.png",
    "address": "446 Summerhill Avenue, ",
    "country": "Canada",
    "state": "ON",
    "city": "Toronto",
    "postal": "M4W 2E4"
  },
  {
    "lat": "43.6786558",
    "lng": "-79.3471601",
    "id": 2596570,
    "name": "Healthy Planet - Danforth",
    "store_image": "\/\/cdn.shopify.com\/s\/files\/1\/1762\/2215\/t\/29\/assets\/scasl_1560190336healthy-planet_compact.png",
    "marker_image": "\/\/cdn.shopify.com\/s\/files\/1\/1762\/2215\/t\/29\/assets\/scasl_1560190336download_compact.png",
    "address": "568 Danforth Ave",
    "country": "Canada",
    "state": "ON",
    "city": "Toronto",
    "postal": "M4K 1R1"
  },
  {
    "lat": "43.8839772",
    "lng": "-79.44120900000001",
    "id": 2596571,
    "name": "Healthy Planet - Richmond Hill",
    "phone": "(905) 884-8771",
    "store_image": "\/\/cdn.shopify.com\/s\/files\/1\/1762\/2215\/t\/29\/assets\/scasl_1561052659healthy-planet_compact.png",
    "marker_image": "\/\/cdn.shopify.com\/s\/files\/1\/1762\/2215\/t\/29\/assets\/scasl_1560190764download_compact.png",
    "address": "10520 Yonge St",
    "address2": "Unit 20",
    "country": "Canada",
    "state": "ON",
    "city": "Richmond Hill",
    "postal": "L4C 3C7"
  },
  {
    "lat": "43.7666396",
    "lng": "-79.4742113",
    "id": 2657138,
    "name": "Fortinos Oakville",
    "phone": "(905) 257-3540",
    "store_image": "\/\/cdn.shopify.com\/s\/files\/1\/1762\/2215\/t\/29\/assets\/scasl_1561053060fortinos_compact.png",
    "marker_image": "\/\/cdn.shopify.com\/s\/files\/1\/1762\/2215\/t\/29\/assets\/scasl_1561053061download_compact.png",
    "address": "493 Dundas St W,",
    "country": "Canada",
    "state": "ON",
    "city": "Oakville",
    "postal": "L6M 4M2"
  },
  {
    "lat": "43.7666396",
    "lng": "-79.4742113",
    "id": 2657139,
    "name": "Fortinos Burlington",
    "phone": "(905) 336-6566",
    "store_image": "\/\/cdn.shopify.com\/s\/files\/1\/1762\/2215\/t\/29\/assets\/scasl_1561053200fortinos_compact.png",
    "marker_image": "\/\/cdn.shopify.com\/s\/files\/1\/1762\/2215\/t\/29\/assets\/scasl_1561053201download_compact.png",
    "address": "2025 Guelph Line",
    "country": "Canada",
    "state": "ON",
    "city": "Burlington",
    "postal": "L7P 4M8"
  },
  {
    "lat": "43.788877",
    "lng": "-79.55489999999998",
    "id": 2686788,
    "name": "Fortinos Woodbridge",
    "phone": "(905) 851-5642",
    "store_image": "\/\/cdn.shopify.com\/s\/files\/1\/1762\/2215\/t\/29\/assets\/scasl_1562267068fortinos_compact.png",
    "marker_image": "\/\/cdn.shopify.com\/s\/files\/1\/1762\/2215\/t\/29\/assets\/scasl_1562267070download_compact.png",
    "address": "3940 Hwy 7",
    "country": "Canada",
    "city": "Woodbridge",
    "postal": "L4L 1A6"
  },
  {
    "lat": "43.7928261",
    "lng": "-79.62371619999999",
    "id": 2686791,
    "name": "Fortinos Hwy 27",
    "phone": "(905) 851-7632",
    "store_image": "\/\/cdn.shopify.com\/s\/files\/1\/1762\/2215\/t\/29\/assets\/scasl_1562267199fortinos_compact.png",
    "marker_image": "\/\/cdn.shopify.com\/s\/files\/1\/1762\/2215\/t\/29\/assets\/scasl_1562267199download_compact.png",
    "address": "8585 York Regional Rd 27",
    "country": "Canada",
    "state": "ON",
    "city": "Woodbridge",
    "postal": "L4L 1V2"
  },
  {
    "lat": "43.8492237",
    "lng": "-79.5327694",
    "id": 2686793,
    "name": "Fortinos Vaughan",
    "store_image": "\/\/cdn.shopify.com\/s\/files\/1\/1762\/2215\/t\/29\/assets\/scasl_1562267314fortinos_compact.png",
    "marker_image": "\/\/cdn.shopify.com\/s\/files\/1\/1762\/2215\/t\/29\/assets\/scasl_1562267315download_compact.png",
    "address": "2911 Major MacKenzie Dr W",
    "country": "Canada",
    "state": "ON",
    "city": "Maple",
    "postal": "L6A 3N9"
  },
  {
    "lat": "43.2155197",
    "lng": "-79.9894448",
    "id": 2694780,
    "name": "Fortinos Ancaster",
    "phone": "(905) 304-5740",
    "store_image": "\/\/cdn.shopify.com\/s\/files\/1\/1762\/2215\/t\/29\/assets\/scasl_1562598434fortinos_compact.png",
    "marker_image": "\/\/cdn.shopify.com\/s\/files\/1\/1762\/2215\/t\/29\/assets\/scasl_1562598434download_compact.png",
    "address": "54 Wilson St W.",
    "country": "Canada",
    "state": "ON",
    "city": "Ancaster",
    "postal": "L9G 1N2"
  },
  {
    "lat": "43.7686667",
    "lng": "-79.41209479999998",
    "id": 2783810,
    "name": "Loblaws Empress Walks",
    "phone": " (416) 512-9430",
    "store_image": "\/\/cdn.shopify.com\/s\/files\/1\/1762\/2215\/t\/29\/assets\/scasl_1568653771loblaws-logo_compact.jpg",
    "marker_image": "\/\/cdn.shopify.com\/s\/files\/1\/1762\/2215\/t\/29\/assets\/scasl_1564340272download_compact.png",
    "address": "5095 Yonge St",
    "country": "Canada",
    "state": "ON",
    "city": "Toronto",
    "postal": "M2N 6Z4"
  },
  {
    "lat": "43.6964707",
    "lng": "-79.37057879999998",
    "id": 2783811,
    "name": "Loblaws Bayview & Moore",
    "phone": "(416) 425-0604",
    "store_image": "\/\/cdn.shopify.com\/s\/files\/1\/1762\/2215\/t\/29\/assets\/scasl_1568653749loblaws-logo_compact.jpg",
    "marker_image": "\/\/cdn.shopify.com\/s\/files\/1\/1762\/2215\/t\/29\/assets\/scasl_1564340440download_compact.png",
    "address": "301 Moore Ave",
    "country": "Canada",
    "state": "ON",
    "city": "East York",
    "postal": "M4G 1E1"
  },
  {
    "lat": "43.6990972",
    "lng": "-79.35972319999996",
    "id": 2783812,
    "name": "Loblaws Millwood & Laird",
    "store_image": "\/\/cdn.shopify.com\/s\/files\/1\/1762\/2215\/t\/29\/assets\/scasl_1568653720loblaws-logo_compact.jpg",
    "marker_image": "\/\/cdn.shopify.com\/s\/files\/1\/1762\/2215\/t\/29\/assets\/scasl_1564340566download_compact.png",
    "address": "11 Redway Rd",
    "country": "Canada",
    "state": "ON",
    "city": "East York",
    "postal": "M4H 1P6"
  },
  {
    "lat": "43.68842",
    "lng": "-79.39350999999999",
    "id": 2783813,
    "name": "Loblaws St Clair Market",
    "phone": "(416) 960-8108",
    "store_image": "\/\/cdn.shopify.com\/s\/files\/1\/1762\/2215\/t\/29\/assets\/scasl_1568653697loblaws-logo_compact.jpg",
    "marker_image": "\/\/cdn.shopify.com\/s\/files\/1\/1762\/2215\/t\/29\/assets\/scasl_1564340694download_compact.png",
    "address": "12 St Clair Ave E",
    "country": "Canada",
    "state": "ON",
    "city": "Toronto",
    "postal": "M4T 1L7"
  },
  {
    "lat": "43.1755191",
    "lng": "-79.77772319999997",
    "id": 3034619,
    "name": "Fortinos Stoney Creek",
    "phone": "(905) 664-4355",
    "store_image": "\/\/cdn.shopify.com\/s\/files\/1\/1762\/2215\/t\/29\/assets\/scasl_1568651759fortinos-logo_compact.png",
    "marker_image": "\/\/cdn.shopify.com\/s\/files\/1\/1762\/2215\/t\/29\/assets\/scasl_1568651760bio-raw-logo_compact.jpg",
    "address": "21 Upper Centennial Pkwy South",
    "city": "Stoney Creek",
    "postal": "L8J 3W2"
  },
  {
    "lat": "43.3269263",
    "lng": "-79.83087739999996",
    "id": 3034622,
    "name": "Fortinos Burlington Plains",
    "phone": "(905) 634-1591",
    "store_image": "\/\/cdn.shopify.com\/s\/files\/1\/1762\/2215\/t\/29\/assets\/scasl_1568651890fortinos-logo_compact.png",
    "marker_image": "\/\/cdn.shopify.com\/s\/files\/1\/1762\/2215\/t\/29\/assets\/scasl_1568651891bio-raw-logo_compact.jpg",
    "address": "1059 Plains Rd East ",
    "country": "Canada",
    "state": "ON",
    "city": "Burlington",
    "postal": "L7T 4K1"
  },
  {
    "lat": "43.36923030000001",
    "lng": "-79.75348129999998",
    "id": 3034624,
    "name": "Fortinos Burlington New",
    "store_image": "\/\/cdn.shopify.com\/s\/files\/1\/1762\/2215\/t\/29\/assets\/scasl_1568652005fortinos-logo_compact.png",
    "marker_image": "\/\/cdn.shopify.com\/s\/files\/1\/1762\/2215\/t\/29\/assets\/scasl_1568652005bio-raw-logo_compact.jpg",
    "address": "5111 New Street",
    "country": "Canada",
    "state": "ON",
    "city": "Burlington",
    "postal": "L7L 1V2"
  },
  {
    "lat": "43.7666396",
    "lng": "-79.4742113",
    "id": 3034629,
    "name": "Healthy Planet - Aurora",
    "phone": "(289) 879-2700",
    "store_image": "\/\/cdn.shopify.com\/s\/files\/1\/1762\/2215\/t\/29\/assets\/scasl_1568652286healthy-planet-logo_compact.png",
    "marker_image": "\/\/cdn.shopify.com\/s\/files\/1\/1762\/2215\/t\/29\/assets\/scasl_1568652287bio-raw-logo_compact.jpg",
    "address": "4760 Yonge Street ",
    "address2": "Unit: 3-4",
    "country": "Canada",
    "state": "ON",
    "city": "Aurora",
    "postal": "L4G 7H8"
  },
  {
    "lat": "43.6417212",
    "lng": "-79.4155657",
    "id": 3034645,
    "name": "Marcello's Independent City Market ",
    "phone": "(416) 596-0665",
    "store_image": "\/\/cdn.shopify.com\/s\/files\/1\/1762\/2215\/t\/29\/assets\/scasl_1568653286independent-city-market-logo_compact.png",
    "marker_image": "\/\/cdn.shopify.com\/s\/files\/1\/1762\/2215\/t\/29\/assets\/scasl_1568653175bio-raw-logo_compact.jpg",
    "address": "1022 King St West",
    "country": "Canada",
    "state": "ON",
    "city": "Toronto",
    "postal": "M6K 0C1"
  },
  {
    "lat": "43.7687506",
    "lng": "-79.3872399",
    "id": 3034654,
    "name": "Loblaws - Bayview Village",
    "phone": "(416) 733-1783",
    "store_image": "\/\/cdn.shopify.com\/s\/files\/1\/1762\/2215\/t\/29\/assets\/scasl_1568653886loblaws-logo_compact.jpg",
    "marker_image": "\/\/cdn.shopify.com\/s\/files\/1\/1762\/2215\/t\/29\/assets\/scasl_1568653887bio-raw-logo_compact.jpg",
    "address": "2877 Bayview Ave",
    "country": "Canada",
    "state": "ON",
    "city": "North York",
    "postal": "M2K 2S3"
  },
  {
    "lat": "43.6751787",
    "lng": "-79.35843599999998",
    "id": 3034657,
    "name": "Loblaws- Broadview",
    "store_image": "\/\/cdn.shopify.com\/s\/files\/1\/1762\/2215\/t\/29\/assets\/scasl_1568653990loblaws-logo_compact.jpg",
    "marker_image": "\/\/cdn.shopify.com\/s\/files\/1\/1762\/2215\/t\/29\/assets\/scasl_1568653991bio-raw-logo_compact.jpg",
    "address": "720 Broadview Ave",
    "country": "Canada",
    "state": "ON",
    "city": "Toronto",
    "postal": "M4K 2P1"
  },
  {
    "lat": "43.7666396",
    "lng": "-79.4742113",
    "id": 3034659,
    "name": "Loblaws- Dundas West ",
    "phone": " (416) 533-4078",
    "store_image": "\/\/cdn.shopify.com\/s\/files\/1\/1762\/2215\/t\/29\/assets\/scasl_1568654109loblaws-logo_compact.jpg",
    "marker_image": "\/\/cdn.shopify.com\/s\/files\/1\/1762\/2215\/t\/29\/assets\/scasl_1568654110bio-raw-logo_compact.jpg",
    "address": " 2280 Dundas St W, Toronto, ON ",
    "country": "Canada",
    "state": "ON",
    "city": "Toronto",
    "postal": "M6R 1X3"
  },
  {
    "lat": "43.5548975",
    "lng": "-79.714856",
    "id": 3034661,
    "name": "Loblaws - Glen Erin",
    "phone": "(905) 607-0580",
    "store_image": "\/\/cdn.shopify.com\/s\/files\/1\/1762\/2215\/t\/29\/assets\/scasl_1568654208loblaws-logo_compact.jpg",
    "marker_image": "\/\/cdn.shopify.com\/s\/files\/1\/1762\/2215\/t\/29\/assets\/scasl_1568654209bio-raw-logo_compact.jpg",
    "address": " 5010 Glen Erin Drive",
    "country": "Canada",
    "state": "ON",
    "city": "Mississauga",
    "postal": "L5M 6J3"
  },
  {
    "lat": "43.6146565",
    "lng": "-79.6886222",
    "id": 3034663,
    "name": "Loblaws - Heartland Market ",
    "phone": "(905) 568-8551",
    "store_image": "\/\/cdn.shopify.com\/s\/files\/1\/1762\/2215\/t\/29\/assets\/scasl_1568654300loblaws-logo_compact.jpg",
    "marker_image": "\/\/cdn.shopify.com\/s\/files\/1\/1762\/2215\/t\/29\/assets\/scasl_1568654300bio-raw-logo_compact.jpg",
    "address": "5970 McLaughlin Rd, , ON ",
    "country": "Canada",
    "state": "ON",
    "city": "Mississauga",
    "postal": "L5R 3X9"
  },
  {
    "lat": "43.6654493",
    "lng": "-79.49578529999997",
    "id": 3034664,
    "name": "Loblaws - Humbercrest Market",
    "phone": "(416) 769-7171",
    "store_image": "\/\/cdn.shopify.com\/s\/files\/1\/1762\/2215\/t\/29\/assets\/scasl_1568654392loblaws-logo_compact.jpg",
    "marker_image": "\/\/cdn.shopify.com\/s\/files\/1\/1762\/2215\/t\/29\/assets\/scasl_1568654393bio-raw-logo_compact.jpg",
    "address": "3671 Dundas St West ",
    "country": "Canada",
    "state": "ON",
    "city": "York",
    "postal": "M6S 2T3"
  },
  {
    "lat": "43.6615135",
    "lng": "-79.51976960000002",
    "id": 3034665,
    "name": "Loblaws - Humbertown ",
    "phone": "(416) 231-0931",
    "store_image": "\/\/cdn.shopify.com\/s\/files\/1\/1762\/2215\/t\/29\/assets\/scasl_1568654585loblaws-logo_compact.jpg",
    "marker_image": "\/\/cdn.shopify.com\/s\/files\/1\/1762\/2215\/t\/29\/assets\/scasl_1568654586bio-raw-logo_compact.jpg",
    "address": "270 The Kingsway",
    "country": "Canada",
    "state": "ON",
    "city": "Etobicoke",
    "postal": "M9A 3T7"
  },
  {
    "lat": "43.8428871",
    "lng": "-79.41042770000001",
    "id": 3034666,
    "name": "Loblaws - Richmond Hill",
    "phone": "(905) 771-1066",
    "store_image": "\/\/cdn.shopify.com\/s\/files\/1\/1762\/2215\/t\/29\/assets\/scasl_1568654707loblaws-logo_compact.jpg",
    "marker_image": "\/\/cdn.shopify.com\/s\/files\/1\/1762\/2215\/t\/29\/assets\/scasl_1568654708bio-raw-logo_compact.jpg",
    "address": "301 High Tech Rd, Richmond Hill, ON ",
    "country": "Canada",
    "state": "ON",
    "city": "Richmond Hill ",
    "postal": "L4B 4R2"
  },
  {
    "lat": "43.8741934",
    "lng": "-79.28475329999998",
    "id": 3034667,
    "name": "Loblaws - McCowan Market ",
    "phone": "(905) 294-4922",
    "store_image": "\/\/cdn.shopify.com\/s\/files\/1\/1762\/2215\/t\/29\/assets\/scasl_1568654822loblaws-logo_compact.jpg",
    "marker_image": "\/\/cdn.shopify.com\/s\/files\/1\/1762\/2215\/t\/29\/assets\/scasl_1568654823bio-raw-logo_compact.jpg",
    "address": "200 Bullock Drive ",
    "country": "Canada",
    "state": "ON",
    "city": "Markham",
    "postal": "L3P 1W2"
  },
  {
    "lat": "43.8323974",
    "lng": "-79.09116",
    "id": 3034670,
    "name": "Loblaws - Pickering Market ",
    "phone": "(905) 831-6301",
    "store_image": "\/\/cdn.shopify.com\/s\/files\/1\/1762\/2215\/t\/29\/assets\/scasl_1568654912loblaws-logo_compact.jpg",
    "marker_image": "\/\/cdn.shopify.com\/s\/files\/1\/1762\/2215\/t\/29\/assets\/scasl_1568654913bio-raw-logo_compact.jpg",
    "address": "1792 Liverpool Road",
    "country": "Canada",
    "state": "ON",
    "city": "Pickering ",
    "postal": " L1V 1V9"
  },
  {
    "lat": "43.546851",
    "lng": "-79.59449410000002",
    "id": 3034672,
    "name": "Loblaws- Pickering Market",
    "phone": "(905) 271-9925",
    "store_image": "\/\/cdn.shopify.com\/s\/files\/1\/1762\/2215\/t\/29\/assets\/scasl_1568655118loblaws-logo_compact.jpg",
    "marker_image": "\/\/cdn.shopify.com\/s\/files\/1\/1762\/2215\/t\/29\/assets\/scasl_1568655119bio-raw-logo_compact.jpg",
    "address": "250 Lakeshore Rd W,, ON ",
    "country": "Canada",
    "state": "ON",
    "city": " Mississauga",
    "postal": "L5H 1G6"
  },
  {
    "lat": "43.6667329",
    "lng": "-79.46852369999999",
    "id": 3034682,
    "name": "The Sweet Potato",
    "phone": "(416) 762-4848",
    "store_image": "\/\/cdn.shopify.com\/s\/files\/1\/1762\/2215\/t\/29\/assets\/scasl_1568656191the-sweet-pot_compact.png",
    "marker_image": "\/\/cdn.shopify.com\/s\/files\/1\/1762\/2215\/t\/29\/assets\/scasl_1568656191bio-raw-logo_compact.jpg",
    "address": "108 Vine Ave, Toronto, ON ",
    "country": "Canada",
    "state": "ON",
    "city": "Toronto",
    "postal": "M6P 1V7"
  },
  {
    "lat": "43.6719078",
    "lng": "-79.39486970000002",
    "id": 3034683,
    "name": "Whole Foods Market - Yorkville ",
    "phone": "(416) 944-0500",
    "store_image": "\/\/cdn.shopify.com\/s\/files\/1\/1762\/2215\/t\/29\/assets\/scasl_1568656368whole-foods-logo_compact.png",
    "marker_image": "\/\/cdn.shopify.com\/s\/files\/1\/1762\/2215\/t\/29\/assets\/scasl_1568656323bio-raw-logo_compact.jpg",
    "address": "87 Avenue Rd, Toronto, ON ",
    "country": "Canada",
    "state": "ON",
    "city": "Toronto",
    "postal": "M5R 3R9"
  },
  {
    "lat": "43.5967748",
    "lng": "-79.6427104",
    "id": 3034684,
    "name": "Whole Foods Market - Square One ",
    "phone": "(905) 275-9393",
    "store_image": "\/\/cdn.shopify.com\/s\/files\/1\/1762\/2215\/t\/29\/assets\/scasl_1568656488whole-foods-logo_compact.png",
    "marker_image": "\/\/cdn.shopify.com\/s\/files\/1\/1762\/2215\/t\/29\/assets\/scasl_1568656488bio-raw-logo_compact.jpg",
    "address": "55 Square One Dr, , ON",
    "country": "Canada",
    "state": "ON",
    "city": "Mississauga",
    "postal": " L5B 0E2"
  },
  {
    "lat": "43.4567161",
    "lng": "-79.67928540000003",
    "id": 3034686,
    "name": "Whole Foods Market - Oakville ",
    "store_image": "\/\/cdn.shopify.com\/s\/files\/1\/1762\/2215\/t\/29\/assets\/scasl_1568656583whole-foods-logo_compact.png",
    "marker_image": "\/\/cdn.shopify.com\/s\/files\/1\/1762\/2215\/t\/29\/assets\/scasl_1568656584bio-raw-logo_compact.jpg",
    "address": "301 Cornwall Road ",
    "country": "Canada",
    "state": "ON",
    "city": "Oakville",
    "postal": "L6J 7Z5"
  },
  {
    "lat": "43.7141093",
    "lng": "-79.37785199999996",
    "id": 3034688,
    "name": "Whole Foods Market - Leaside ",
    "phone": "(416) 484-0090",
    "store_image": "\/\/cdn.shopify.com\/s\/files\/1\/1762\/2215\/t\/29\/assets\/scasl_1568656671whole-foods-logo_compact.png",
    "marker_image": "\/\/cdn.shopify.com\/s\/files\/1\/1762\/2215\/t\/29\/assets\/scasl_1568656672bio-raw-logo_compact.jpg",
    "address": "1860 Bayview Ave, Toronto, ON ",
    "country": "Canada",
    "state": "ON",
    "city": "Toronto",
    "postal": "M4G 3E4"
  },
  {
    "lat": "43.6695816",
    "lng": "-79.38857280000002",
    "id": 3336275,
    "name": "Eataly",
    "store_image": "\/\/cdn.shopify.com\/s\/files\/1\/1762\/2215\/t\/29\/assets\/scasl_1573507202eataly_compact.png",
    "marker_image": "\/\/cdn.shopify.com\/s\/files\/1\/1762\/2215\/t\/29\/assets\/scasl_1573507204bio-raw-logo_compact.jpg",
    "address": "55 Bloor St West",
    "country": "Canada",
    "state": "ON",
    "city": "Toronto",
    "postal": " M4W 1A6"
  },
  {
    "lat": "43.7666396",
    "lng": "-79.4742113",
    "id": 3336276,
    "name": "Whole Foods Market - Yonge & Sheppard",
    "phone": "(416) 730-1100",
    "store_image": "\/\/cdn.shopify.com\/s\/files\/1\/1762\/2215\/t\/29\/assets\/scasl_1573507356whole-foods-logo_compact.png",
    "marker_image": "\/\/cdn.shopify.com\/s\/files\/1\/1762\/2215\/t\/29\/assets\/scasl_1573507357bio-raw-logo_compact.jpg",
    "address": "4771 Yonge Street",
    "country": "Canada",
    "state": "ON",
    "city": "Toronto",
    "postal": "M2N 5M5"
  },
  {
    "lat": "43.6708683",
    "lng": "-79.41361540000003",
    "id": 3491043,
    "name": "Summerhill Market - Bathurst ",
    "phone": " (416) 350-1678",
    "store_image": "\/\/cdn.shopify.com\/s\/files\/1\/1762\/2215\/t\/29\/assets\/scasl_1575833300summerhill-logo-02_compact.png",
    "marker_image": "\/\/cdn.shopify.com\/s\/files\/1\/1762\/2215\/t\/29\/assets\/scasl_1575833301bio-raw-logo_compact.jpg",
    "address": "1014 Bathurst Street",
    "country": "Canada",
    "state": "ON",
    "city": "Toronto",
    "postal": "M5R 3G7"
  }
]